[
  {
    "name": "Guardia di Finanza",
    "lat": 45.1410345,
    "lon": 10.0142633
  },
  {
    "name": "Vigili del Fuoco",
    "lat": 45.1511697,
    "lon": 10.025171
  },
  {
    "name": "INPS",
    "lat": 45.132581,
    "lon": 10.0168745
  },
  {
    "name": "Camera di Commercio",
    "lat": 45.1338694,
    "lon": 10.0241535
  },
  {
    "name": "Ospedale",
    "lat": 45.129456,
    "lon": 10.0548567
  },
  {
    "name": "Archivio di Stato",
    "lat": 45.139302,
    "lon": 10.0225386
  },
  {
    "name": "Informagiovani",
    "lat": 45.1383432,
    "lon": 10.0204908
  },
  {
    "name": "Spazio Comune",
    "lat": 45.13341491267271,
    "lon": 10.023470023788159
  },
  {
    "name": "Duomo",
    "lat": 45.13378012367575, 
    "lon": 10.025293399972288
  },
  {
    "name": "Chiesa di San Luca",
    "lat": 45.1409896,
    "lon": 10.0165579
  },
  {
    "name": "Chiesa di San Sigismondo",
    "lat": 45.1256508,
    "lon": 10.0542536
  },
  {
    "name": "Chiesa di Sant'Agata",
    "lat": 45.138249,
    "lon": 10.0179457
  },
  {
    "name": "Chiesa di Sant'Agostino",
    "lat": 45.1351509,
    "lon": 10.0193959
  },
  {
    "name": "Chiesa di Sant'Abbondio",
    "lat": 45.1370821,
    "lon": 10.0291756
  },
  {
    "name": "Chiesa di San Sebastiano",
    "lat": 45.1337939,
    "lon": 10.0431409
  },
  {
    "name": "Chiesa di Sant'Ambrogio",
    "lat": 45.1441563,
    "lon": 10.0125712
  },
  {
    "name": "Chiesa di Santa Lucia",
    "lat": 45.1330888,
    "lon": 10.0176194
  },
  {
    "name": "Cimitero",
    "lat": 45.14582500794225,
    "lon": 10.023829428805357
  },
  {
    "name": "Hotel Astoria",
    "lat": 45.1345896,
    "lon": 10.0241269
  },
  {
    "name": "Hotel Continental",
    "lat": 45.1370046,
    "lon": 10.0320657
  },
  {
    "name": "Hotel Impero",
    "lat": 45.1330396,
    "lon": 10.0233343
  },
  {
    "name": "Hotel Cremona",
    "lat": 45.130893692088655, 
    "lon": 9.999743880666422
  },
  {
    "name": "Hotel Duomo",
    "lat": 45.1331701,
    "lon": 10.0244205
  },
  {
    "name": "B&B Hotel Cremona",
    "lat": 45.1385045,
    "lon": 10.0412711
  },
  {
    "name": "Albergo Visconti",
    "lat": 45.1269071,
    "lon": 10.0540559
  },
  {
    "name": "Osteria La Sosta",
    "lat": 45.1322789,
    "lon": 10.0247934
  },
  {
    "name": "Hosteria 700",
    "lat": 45.1378345,
    "lon": 10.0224046
  },
  {
    "name": "Moya",
    "lat": 45.1422772,
    "lon": 10.019691
  },
  {
    "name": "Pizzeria Cremonese",
    "lat": 45.1360375,
    "lon": 10.0223983
  },
  {
    "name": "Pizzeria Acquario",
    "lat": 45.1323942,
    "lon": 10.0232884
  },
  {
    "name": "Trattoria Alba",
    "lat": 45.143914,
    "lon": 10.0393408
  },
  {
    "name": "Ipercoop",
    "lat": 45.131536401235884, 
    "lon": 10.016315082957638
  },
  {
    "name": "Esselunga",
    "lat": 45.135771,
    "lon": 10.0358863
  },
  {
    "name": "Super Rossetto",
    "lat": 45.1519805,
    "lon": 10.0139111
  },
  {
    "name": "Eurospar supermercato",
    "lat": 45.1288683,
    "lon": 10.0296357
  },
  {
    "name": "Concessionaria Citroen",
    "lat": 45.1456344,
    "lon": 10.0747065
  },
  {
    "name": "Concessionaria Toyota",
    "lat": 45.1522334,
    "lon": 9.9978714
  },
  {
    "name": "Concessionaria Volkswagen",
    "lat": 45.1572883,
    "lon": 9.9887353
  },
  {
    "name": "Liceo scientifico Aselli",
    "lat": 45.1398261,
    "lon": 10.0201928
  },
  {
    "name": "ITIS",
    "lat": 45.1507912,
    "lon": 10.0019957
  },
  {
    "name": "Università Cattolica del Sacro Cuore",
    "lat": 45.13782094146202, 
    "lon": 10.012104444444754
  },
  {
    "name": "Scuola media Anna Frank",
    "lat": 45.1304778,
    "lon": 10.0376377
  },
  {
    "name": "Ristorante Chiave di Bacco",
    "lat": 45.13147785220861, 
    "lon": 10.023345377140949
  },
  {
    "name": "Museo del Violino",
    "lat": 45.1312626,
    "lon": 10.0230249
  },
  {
    "name": "Museo Civico Ala Ponzone",
    "lat": 45.1380124,
    "lon": 10.0213714
  },
  {
    "name": "Museo della Civiltà Contadina",
    "lat": 45.1520153,
    "lon": 9.9999894
  },
  {
    "name": "Museo Archeologico San Lorenzo",
    "lat": 45.1349972,
    "lon": 10.0294349
  },
  {
    "name": "Museo Diocesano",
    "lat": 45.1328775,
    "lon": 10.0254811
  },
  {
    "name": "Museo Civico di Storia Naturale",
    "lat": 45.1379159,
    "lon": 10.0209191
  },
  {
    "name": "Biblioteca Statale",
    "lat": 45.1384176,
    "lon": 10.0216782
  },
  {
    "name": "Autostazione",
    "lat": 45.1423234,
    "lon": 10.0210784
  },
  {
    "name": "Teatro Ponchielli",
    "lat": 45.1321713,
    "lon": 10.0190454
  },
  {
    "name": "Canottieri Bissolati",
    "lat": 45.1331322,
    "lon": 9.9913711
  },
  {
    "name": "Canottieri Flora",
    "lat": 45.1339639,
    "lon": 9.9883672
  },
  {
    "name": "Centro Sportivo San Zeno",
    "lat": 45.1483539,
    "lon": 10.0199818
  },
  {
    "name": "Centro Sportivo Stradivari",
    "lat": 45.1465523,
    "lon": 9.9876974
  },
  {
    "name": "Stadio Zini",
    "lat": 45.140044,
    "lon": 10.0350005
  },
  {
    "name": "Piscine Comunali",
    "lat": 45.1277312,
    "lon": 10.0027998
  },
  {
    "name": "MAC Motonautica Associazione Cremona",
    "lat": 45.126199,
    "lon": 10.0005273
  },
  {
    "name": "Palazzo Trecchi",
    "lat": 45.1376136,
    "lon": 10.0170934
  },
  {
    "name": "Palazzo Cittanova",
    "lat": 45.1380752,
    "lon": 10.0170775
  },
  {
    "name": "Palazzo del Comune",
    "lat": 45.133361,
    "lon": 10.0238728
  },
  {
    "name": "Palazzo Duemiglia",
    "lat": 45.1434656,
    "lon": 10.0340783
  },
  {
    "name": "Palazzo Fodri",
    "lat": 45.1355318,
    "lon": 10.0279078
  },
  {
    "name": "Galleria XXV Aprile",
    "lat": 45.1348027,
    "lon": 10.0225125
  },
  {
    "name": "Colonie Padane",
    "lat": 45.122426,
    "lon": 10.0068077
  },
  {
    "name": "Parco del Vecchio Passeggio",
    "lat": 45.1388306,
    "lon": 10.0261551
  },
  {
    "name": "Giardini Pubblici \"Papa Giovanni Paolo II\"",
    "lat": 45.1355482,
    "lon": 10.0228266
  },
  {
    "name": "Fiera di Cremona",
    "lat": 45.151861,
    "lon": 10.032709
  },
  {
    "name": "Provincia/Prefettura",
    "lat": 45.1329795,
    "lon": 10.0211763
  },
  {
    "name": "Comune sede principale",
    "lat": 45.1334959,
    "lon": 10.0248323
  },
  {
    "name": "Regione Lombardia sede territoriale",
    "lat": 45.14034820503391, 
    "lon": 10.025994596484939
  },
  {
    "name": "Poste Ufficio Centrale",
    "lat": 45.13398507811165, 
    "lon": 10.02224791115946
  },
  {
    "name": "Agenzia delle Entrate",
    "lat": 45.1330204,
    "lon": 10.0205158
  },
  {
    "name": "Agenzia del Territorio (Catasto)",
    "lat": 45.13937841753496, 
    "lon": 10.026747102083084
  },
  {
    "name": "Motorizzazione Civile",
    "lat": 45.155127004835954, 
    "lon": 10.025415737344733
  },
  {
    "name": "Tribunale",
    "lat": 45.13318217898083, 
    "lon": 10.018598784326478
  },
  {
    "name": "Questura",
    "lat": 45.1326430470396, 
    "lon": 10.019075983799167
  },
  {
    "name": "Carabinieri Comando Stazione",
    "lat": 45.14113813001615, 
    "lon": 10.02056200538956
  },
  {
    "name": "Polizia Stradale",
    "lat": 45.138179778964954, 
    "lon": 10.009254847612427
  },
  {
    "name": "Polizia Locale del Comune",
    "lat": 45.1376663,
    "lon": 10.0327109
  },
  {
    "name": "ATS Val Padana (ASL)",
    "lat": 45.134058,
    "lon": 10.044822
  },
  {
    "name": "Geriatrico Soldi (Cremona Solidale)",
    "lat": 45.1502554,
    "lon": 10.0414553
  },
  {
    "name": "Clinica San Camillo",
    "lat": 45.1375655,
    "lon": 10.0394928
  },
  {
    "name": "Clinica Figlie di San Camillo",
    "lat": 45.14591203281514, 
    "lon": 10.012746971575396
  },
  {
    "name": "Clinica Ancelle della Carità",
    "lat": 45.136526293328686, 
    "lon": 10.025299515064043
  },
  {
    "name": "INAIL",
    "lat": 45.1488681,
    "lon": 10.0350417
  },
  {
    "name": "ARPA (Agenzia Regionale Protezione Ambiente)",
    "lat": 45.13181602159721, 
    "lon": 10.032399933552762
  },
  {
    "name": "Carcere",
    "lat": 45.1305445,
    "lon": 10.0632025
  },
  {
    "name": "Caserma Col di Lana",
    "lat": 45.1470359,
    "lon": 10.0382169
  },
  {
    "name": "Ufficio anagrafe comunale",
    "lat": 45.132515489869675, 
    "lon": 10.020940642044913
  },
  {
    "name": "Piazza San Michele",
    "lat": 45.1352387,
    "lon": 10.0325501
  },
  {
    "name": "Chiesa di San Michele Vetere",
    "lat": 45.13526248526879,
    "lon": 10.032834674446514
  },
  {
    "name": "Chiesa di Pietro al Po",
    "lat": 45.1312215,
    "lon": 10.0190163
  },
  {
    "name": "Chiesa di Cristo Re",
    "lat": 45.1329208,
    "lon": 10.0074992
  },
  {
    "name": "Chiesa di Sant'Imerio",
    "lat": 45.13044276461469, 
    "lon": 10.027133879721982
  },
  {
    "name": "Chiesa di Sant'Omobono",
    "lat": 45.134985399411896, 
    "lon": 10.01751817569952
  },
  {
    "name": "Dellearti Design Hotel",
    "lat": 45.1328876,
    "lon": 10.027079
  },
  {
    "name": "Ristorante Centrale",
    "lat": 45.1348056,
    "lon": 10.0251045
  },
  {
    "name": "Osteria del Melograno",
    "lat": 45.132583554509075, 
    "lon": 10.023537999586377
  },
  {
    "name": "Kandoo",
    "lat": 45.1320602,
    "lon": 10.0160237
  },
  {
    "name": "Pizzeria La Pendola",
    "lat": 45.13651855298283, 
    "lon": 10.03100894918967
  },
  {
    "name": "Acciaieria Arvedi ISP (area nord)",
    "lat": 45.15022659275093, 
    "lon": 9.94372326796329
  },
  {
    "name": "Paolo Corazzi Fibre",
    "lat": 45.1454782,
    "lon": 9.990799
  },
  {
    "name": "Oleificio Zucchi",
    "lat": 45.147621101785404,
    "lon":  9.953929186488917
  },
  {
    "name": "Provincia sede porto",
    "lat": 45.1437954,
    "lon": 9.9787575
  },
  {
    "name": "Consorzio Agrario",
    "lat": 45.147243433548844, 
    "lon": 9.964412373141393
  },
  {
    "name": "Banco BPM - Banca Popolare di Cremona",
    "lat": 45.13383677548001, 
    "lon": 10.034005363310012
  },
  {
    "name": "Centro Commerciale Cremona Po",
    "lat": 45.15053660339526, 
    "lon": 9.996560993158692
  },
  {
    "name": "Mediaword",
    "lat": 45.14966810667535, 
    "lon": 10.002894510532574
  },
  {
    "name": "Concessionaria Renault - Nissan",
    "lat": 45.14313057480592, 
    "lon": 9.995154628184565
  },
  {
    "name": "CRIT Crescita Relazione Innovazione Territorio",
    "lat": 45.141097,
    "lon": 10.0396944
  },
  {
    "name": "Istituto d'Istruzione Superiore Ghisleri/Stanga",
    "lat": 45.13960031254406, 
    "lon": 10.0204046679172
  },
  {
    "name": "Liceo Sofonisba Anguissola",
    "lat": 45.138449,
    "lon": 10.0201074
  },
  {
    "name": "Liceo Vida",
    "lat": 45.14294486970573, 
    "lon": 10.001809231946378
  },
  {
    "name": "Politecnico di Milano Polo territoriale di Cremona",
    "lat": 45.134965574488334, 
    "lon": 10.015468338111768
  },
  {
    "name": "Scuola media Virgilio",
    "lat": 45.13514429053037, 
    "lon": 10.008324491752074
  },
  {
    "name": "Stazione FS",
    "lat": 45.14322230285467, 
    "lon": 10.017869558022735
  },
  {
    "name": "Parcheggio Autosilo Massarotti",
    "lat": 45.133986519241844, 
    "lon": 10.013793277635138
  },
  {
    "name": "Parcheggio Villa Glori",
    "lat": 45.1372996,
    "lon": 10.0180545
  },
  {
    "name": "Parcheggio Saba Marconi",
    "lat": 45.13188570749573, 
    "lon": 10.022321487334626
  },
  {
    "name": "Teatro Monteverdi",
    "lat": 45.140314152456156, 
    "lon": 10.024739045201025
  },
  {
    "name": "Teatro/Cinema Filodrammatici",
    "lat": 45.1358493,
    "lon": 10.0247827
  },
  {
    "name": "Cinema Chaplin",
    "lat": 45.1390426,
    "lon": 10.0399871
  },
  {
    "name": "Anteo SpazioCinema",
    "lat": 45.1498921,
    "lon": 9.9969002
  },
  {
    "name": "Canottieri Baldesio",
    "lat": 45.1301505,
    "lon": 10.001319
  },
  {
    "name": "Centro Sportivo Giovanni Arvedi - US Cremonese",
    "lat": 45.13653886951461, 
    "lon": 10.04770522517829
  },
  {
    "name": "Palestra Spettacolo Accademia Boxe",
    "lat": 45.135509144959116, 
    "lon": 10.044436938682423
  },
  {
    "name": "Palazzetto dello Sport",
    "lat": 45.1511325,
    "lon": 10.0341088
  },
  {
    "name": "Campo di Calcio Soldi",
    "lat": 45.1358383,
    "lon": 10.0439762
  },
  {
    "name": "USC Cremonese",
    "lat": 45.13426343765827, 
    "lon": 10.024799014043182
  },
  {
    "name": "Crossodromo di Cremona - Moto Club",
    "lat": 45.1356682,
    "lon": 9.9828312
  },
  {
    "name": "Golf Il Torrazzo",
    "lat": 45.1628520156972, 
    "lon": 9.984887134245854
  },
  {
    "name": "Palazzo Zaccaria Pallavicino",
    "lat": 45.1358673,
    "lon": 10.028097
  },
  {
    "name": "Palazzo Cattaneo",
    "lat": 45.1352681,
    "lon": 10.0176514
  },
  {
    "name": "Casello autostrada",
    "lat": 45.14247181212413, 
    "lon": 10.068624330725438
  },
  {
    "name": "Ponte sul Po",
    "lat": 45.12854131000889, 
    "lon": 9.994848737329376
  },
  {
    "name": "ACI e PRA",
    "lat": 45.13357200206466,
    "lon": 10.027156904740972
  },
  {
    "name": "Ocrim",
    "lat": 45.139729853520485,
    "lon": 9.971387439550206
  },
  {
    "name": "Istituto d'Istruzione Einaudi",
    "lat": 45.13857451272351,
    "lon": 10.010643411576284
  },
  {
    "name": "Parcheggio Santa Tecla",
    "lat": 45.13729609352735,
    "lon": 10.013132848976674
  },
  {
    "name": "Cinema Arena Giardino",
    "lat": 45.13151134365798,
    "lon": 10.01409756140184
  },
  {
    "name": "Palazzo Vescovile",
    "lat": 45.13295515964099,
    "lon": 10.025483135513115
  },
  {
    "name": "Porto Canale o Porto Interno",
    "lat": 45.13755937850401,
    "lon": 9.979907078937112
  },
  {
    "name": "Piazza Antonio Stradivari",
    "lat": 45.133705589490376,
    "lon": 10.023398347198423
  },
  {
    "name": "Piazza Roma",
    "lat": 45.13491656994864,
    "lon": 10.02351636438953
  },
  {
    "name": "Piazza Guglielmo Marconi",
    "lat": 45.1322734424679,
    "lon": 10.022601991312222
  },
  {
    "name": "Piazza della Pace",
    "lat": 45.13296027608379,
    "lon": 10.023494084222893
  },
  {
    "name": "Piazza Lodi",
    "lat": 45.13625320453086,
    "lon": 10.02660832018251
  },
  {
    "name": "Piazza Sant'Agostino",
    "lat": 45.1349401242157,
    "lon": 10.019330085633513
  },
  {
    "name": "Piazza della Libertà",
    "lat": 45.13731423790983,
    "lon": 10.031623451447816
  },
  {
    "name": "Piazza San Paolo",
    "lat": 45.13588985530883,
    "lon": 10.01631673553379
  },
  {
    "name": "Piazza Giovanni XXIII",
    "lat": 45.13754699950237,
    "lon": 10.025859620934051
  },
  {
    "name": "Piazza IV Novembre",
    "lat": 45.13399751855687,
    "lon": 10.033453792787283
  },
  {
    "name": "Piazza Girolamo Vida",
    "lat": 45.13647687049298,
    "lon": 10.019502517757326
  },
  {
    "name": "Piazza Castello",
    "lat": 45.14045629956414,
    "lon": 10.011250926437356
  },
  {
    "name": "Codognese 234 (Pavia)",
    "lat": 45.14451125449823, 
    "lon": 9.989392412929861
  },
  {
    "name": "Paullese 415 (Milano)",
    "lat": 45.15325672645669, 
    "lon": 9.995873921821197
  },
  {
    "name": "Soncinese 498 (Bergamo)",
    "lat": 45.156231789575145, 
    "lon": 10.010750203949085
  },
  {
    "name": "Padana Inf 10 (Piacenza - Mantova)",
    "lat": 45.14227219256245, 
    "lon": 10.059603593859638
  }
]